{
  "binance": {
    "location": "Malta",
    "lat": 35.9375,
    "lon": 14.3754,
    "address": "85602 Melita Court, Level 3 Triq Giuseppe Cali TA' XBIEX"
  },
  "pax treasury": {
    "location": "New York City",
    "lat": 40.7128,
    "lon": -74.006,
    "address": "450 Lexington Avenue New York, NY 10017"
  },
  "huobi": {
    "location": "Singapore",
    "lat": 1.3521,
    "lon": 103.8198,
    "address": "10 Anson Road, International Plaza, Singapore, Singapore"
  },
  "ftx": {
    "location": "San Francisco, CA",
    "lat": 37.7749,
    "lon": -122.4194,
    "address": "San Francisco, CA, United States"
  },
  "kraken": {
    "location": "San Francisco, CA",
    "lat": 37.7749,
    "lon": -122.4194,
    "address": "548 Market Street Suite 39656 San Francisco, CA 94104 USA"
  },
  "coinone": {
    "location": "Seoul, SK",
    "lat": 37.5665,
    "lon": -126.978,
    "address": "International Finance Centre Seoul, Three IFC, 10 Gukjegeumyung-ro, Youngdeungpo-gu, Seoul Korea 07326"
  },
  "kucoin": {
    "location": "Singapore",
    "lat": 1.3521,
    "lon": 103.8198,
    "address": null
  },
  "wrapped ether": {
    "location": null,
    "lat": null,
    "lon": null,
    "address": null
  },
  "okex": {
    "location": "Malaysia",
    "lat": 3.1593,
    "lon": 101.7188,
    "address": "Menara Binjai, No.2, Jalan Binjai, 50450 Kuala Lumpur Malaysia"
  },
  "gateio": {
    "location": "Grand Cayman",
    "lat": 19.3222,
    "lon": -81.2409,
    "address": "31119 Grand Pavilion, Hibiscus Way, 802 West Bay Road, Grand Cayman, KY1-1205 Cayman Islands"
  },
  "bithumb": {
    "location": "Seoul, SK",
    "lat": 37.5665,
    "lon": -126.978,
    "address": "17 Teheran-ro 16-gil, Yeoksam-dong, Gangnam-gu, Seoul, South Korea"
  },
  "usdc incinerator": {
    "location": "Boston, MA",
    "lat": 42.3601,
    "lon": -71.0589,
    "address": "155 FEDERAL STREET, SUITE 700, BOSTON, MA, 02110, USA"
  },
  "bitfinex": {
    "location": "Taiwan",
    "lat": 23.6978,
    "lon": 120.9605,
    "address": "Taiwan, 17F-2, No. 266, Sec. 1, Wenhua Rd., Banqiao Dist., New Taipei City 22041, Taiwan"
  },
  "hitbtc": {
    "location": "Hong Kong",
    "lat": 22.3193,
    "lon": 114.1694,
    "address": "One Midtown, 11 Hoi Shing Rd, Tsuen Wan, Hong Kong"
  },
  "compound": {
    "location": "San Francisco, CA",
    "lat": 37.7749,
    "lon": -122.4194,
    "address": "99 Shotwell Street, San Francisco, CA 94103"
  },
  "usdc treasury": {
    "location": "Boston, MA",
    "lat": 42.3601,
    "lon": -71.0589,
    "address": "155 Federal Street, Boston, MA, 02110, USA"
  },
  "bittrex": {
    "location": "Seattle, WA",
    "lat": 47.6062,
    "lon": -122.3321,
    "address": "800 5th Ave, Seattle, WA 98104"
  },
  "cashierest": {
    "location": "Seoul, SK",
    "lat": 37.5665,
    "lon": -126.978,
    "address": null
  },
  "uphold": {
    "location": "Larkspur, CA",
    "lat": 37.9341,
    "lon": -122.5353,
    "address": "900 Larkspur Landing Circle, Larkspur, CA 94939 United States"
  },
  "hex": {
    "location": null,
    "lat": null,
    "lon": null,
    "address": null
  },
  "tether treasury": {
    "location": "Hong Kong",
    "lat": 22.3193,
    "lon": 114.1694,
    "address": null
  },
  "gemini": {
    "location": "New York City",
    "lat": 40.7128,
    "lon": -74.006,
    "address": "600 Third Avenue, 2nd Floor, New York, NY 10016"
  },
  "idex": {
    "location": "Chicago, IL",
    "lat": 41.8781,
    "lon": -87.6298,
    "address": "1925 W Field Ct, Lake Forest, IL 60045"
  },
  "shakepay": {
    "location": "Quebec, Canada",
    "lat": 46.8139,
    "lon": -71.208,
    "address": "500 St Jacques St, Montreal, Quebec H2Y 1S1, Canada"
  },
  "remitano": {
    "location": "Seychelles",
    "lat": -4.6796,
    "lon": 55.492,
    "address": null
  },
  "renrenbit": {
    "location": "Beijing, CN",
    "lat": 39.9042,
    "lon": 116.4074,
    "address": "8 N 3rd Ring Rd E, Chaoyang Qu, Beijing Shi, China, 100102"
  },
  "tokenlon": {
    "location": "British Virgin Islands",
    "lat": 18.4207,
    "lon": -64.64,
    "address": null
  },
  "bigone": {
    "location": "Seychelles",
    "lat": -4.6796,
    "lon": 55.492,
    "address": null
  },
  "bitmax": {
    "location": "Singapore",
    "lat": 1.3521,
    "lon": 103.8198,
    "address": "114 Lavender Street, #09-88, Ct Hub 2, Singapore 338729"
  },
  "nexo": {
    "location": "Switzerland",
    "lat": 47.1662,
    "lon": 8.5155,
    "address": "Grafenaustrasse 156300 Zug, Switzerland"
  },
  "bitstamp": {
    "location": "London, UK",
    "lat": 51.5074,
    "lon": -0.1278,
    "address": "5 New St Square, Holborn, London EC4A 3BF, UK"
  },
  "zb": {
    "location": "Switzerland",
    "lat": 47.3769,
    "lon": 8.5417,
    "address": "Zurich, Switzerland 8004, CH"
  },
  "forsage": {
    "location": null,
    "lat": null,
    "lon": null,
    "address": null
  },
  "coinex": {
    "location": "Hong Kong",
    "lat": 22.3193,
    "lon": 114.1694,
    "address": "29 Wyndham St. Central, Hong Kong"
  },
  "poloniex": {
    "location": "Delaware",
    "lat": 38.9108,
    "lon": -75.5277,
    "address": "1013 Centre Rd. Wilmington, DE 19805"
  },
  "cexio": {
    "location": "New Jersey",
    "lat": 40.7178,
    "lon": -74.0431,
    "address": "101 Hudson Street, Jersey City, NJ 07302"
  },
  "loopring": {
    "location": "Shanghai, CN",
    "lat": 31.2304,
    "lon": 121.4737,
    "address": null
  },
  "byex": {
    "location": "Shanghai, CN",
    "lat": 31.2304,
    "lon": 121.4737,
    "address": null
  },
  "hotbit": {
    "location": "Shanghai, CN",
    "lat": 31.2304,
    "lon": 121.4737,
    "address": "Central Ave, Shanghai, Shanghai 200120, CN"
  },
  "plusqo": {
    "location": "Tallinn, Estonia",
    "lat": 59.437,
    "lon": 24.7536,
    "address": null
  },
  "bilaxy": {
    "location": null,
    "lat": null,
    "lon": null,
    "address": null
  },
  "cryptocom": {
    "location": "Hong Kong",
    "lat": 22.3193,
    "lon": 114.1694,
    "address": "418 Des Voeux Rd W, Sai Wan, Hong Kong"
  },
  "aave lending pool": {
    "location": "London, UK",
    "lat": 51.5074,
    "lon": -0.1278,
    "address": null
  },
  "uniswap": {
    "location": "New York City",
    "lat": 40.7128,
    "lon": -74.006,
    "address": "181 N 11th St. Brooklyn, NY 11211"
  },
  "hoocom": {
    "location": "Hong Kong",
    "lat": 22.3193,
    "lon": 114.1694,
    "address": null
  },
  "kyber": {
    "location": "Singapore",
    "lat": 1.3521,
    "lon": 103.8198,
    "address": "8 Eu Tong Sen Street, Singapore, Singapore 059818, SG"
  },
  "kucoin hack 2020": {
    "location": null,
    "lat": null,
    "lon": null,
    "address": null
  },
  "compound tether": {
    "location": "San Francisco, CA",
    "lat": 37.7749,
    "lon": -122.4194,
    "address": "99 Shotwell Street, San Francisco, CA 94103"
  },
  "oneinch": {
    "location": "British Virgin Islands",
    "lat": 18.4207,
    "lon": -64.64,
    "address": null
  },
  "coinbase": {
    "location": "San Francisco, CA",
    "lat": 37.7749,
    "lon": -122.4194,
    "address": "100 Pine Street, San Francisco, CA 94111"
  },
  "unknown owner 24": {
    "location": null,
    "lat": null,
    "lon": null,
    "address": null
  },
  "unknown owner 100": {
    "location": null,
    "lat": null,
    "lon": null,
    "address": null
  },
  "unknown owner 4": {
    "location": null,
    "lat": null,
    "lon": null,
    "address": null
  },
  "discusfish/f2pool/mtgox/freebitc": {
    "location": null,
    "lat": null,
    "lon": null,
    "address": null
  },
  "bitflyer": {
    "location": "Tokyo, JP",
    "lat": 35.6804,
    "lon": 139.769,
    "address": "9 Chome-7-1 Akasaka, Minato City, Tokyo 107-0052, Japan"
  },
  "xapo": {
    "location": "San Francisco, CA",
    "lat": 37.7749,
    "lon": -122.4194,
    "address": "364 University Avenue Palo Alto, CA 94301 United States"
  },
  "bitbank.com": {
    "location": "Shinagawa, JP",
    "lat": 35.6092,
    "lon": 139.7303,
    "address": null
  },
  "unknown owner 3": {
    "location": null,
    "lat": null,
    "lon": null,
    "address": null
  },
  "sygnia": {
    "location": null,
    "lat": null,
    "lon": null,
    "address": null
  },
  "binance hack may 2019": {
    "location": null,
    "lat": null,
    "lon": null,
    "address": null
  },
  "unknown owner 106": {
    "location": null,
    "lat": null,
    "lon": null,
    "address": null
  },
  "coinfloor.co.uk": {
    "location": "London, UK",
    "lat": 51.5074,
    "lon": -0.1278,
    "address": "1 Quality Court, Chancery Lane, London, WC2A 1HR, United Kingdom"
  },
  "bitcoin.co.id": {
    "location": "Bali, ID",
    "lat": -8.3405,
    "lon": 115.092,
    "address": "Jl. Nakula No.88b, Legian, Kuta, Kabupaten Badung, Bali 80361, Indonesia"
  },
  "exmo.com": {
    "location": "London, UK",
    "lat": 51.5074,
    "lon": -0.1278,
    "address": "2 Kingdom Street, London, United Kingdom"
  },
  "unknown owner 105": {
    "location": null,
    "lat": null,
    "lon": null,
    "address": null
  },
  "cex.io": {
    "location": "New Jersey",
    "lat": 40.7178,
    "lon": -74.0431,
    "address": "101 Hudson Street, Jersey City, NJ 07302"
  },
  "tidex": {
    "location": "London, UK",
    "lat": 51.5074,
    "lon": -0.1278,
    "address": null
  },
  "bitbays.com": {
    "location": "Tallinn, Estonia",
    "lat": 59.437,
    "lon": 24.7536,
    "address": "Lootsa 5, 11415 Tallinn, Estonia"
  },
  "korbit.co.kr": {
    "location": "Seoul, SK",
    "lat": 37.5665,
    "lon": -126.978,
    "address": "376 Gangnam-daero Gangnam-gu Seoul, 06232, South Korea"
  },
  "blue helix": {
    "location": "Singapore",
    "lat": 1.3521,
    "lon": 103.8198,
    "address": "100 Tras Street, Singapore, Singapore 079027, SG"
  },
  "bitbank": {
    "location": "Shinagawa, JP",
    "lat": 35.6092,
    "lon": 139.7303,
    "address": "7-chome-20-9 Nishigotanda, Shinagawa City, Tokyo 141-0031, Japan"
  },
  "ripple otc distribution wallet": {
    "location": "San Francisco, CA",
    "lat": 37.7749,
    "lon": -122.4194,
    "address": "315 Montgomery St, San Francisco, CA, United States"
  },
  "bitso": {
    "location": "Puebla, MX",
    "lat": 19.0414,
    "lon": -98.2063,
    "address": "Calle 39 Pte. 3515, Gabriel Pastor 1ra Secc, 72420 Puebla, Pue., Mexico"
  },
  "btcturk": {
    "location": "Istanbul, TR",
    "lat": 41.0082,
    "lon": 28.9784,
    "address": "Kultur mahallesi Nispetiye caddesi Akmerkez E Kule K:9, 34340 Besiktas/Istanbul, Turkey"
  },
  "ripple escrow wallet": {
    "location": "San Francisco, CA",
    "lat": 37.7749,
    "lon": -122.4194,
    "address": "315 Montgomery St, San Francisco, CA, United States"
  },
  "ripple": {
    "location": "San Francisco, CA",
    "lat": 37.7749,
    "lon": -122.4194,
    "address": "315 Montgomery St, San Francisco, CA, United States"
  },
  "jed mccaleb wallet": {
    "location": "San Francisco, CA",
    "lat": 37.7749,
    "lon": -122.4194,
    "address": "315 Montgomery St, San Francisco, CA, United States"
  },
  "upbit": {
    "location": "Seoul, SK",
    "lat": 37.5665,
    "lon": -126.978,
    "address": null
  },
  "gate.io": {
    "location": "Grand Cayman",
    "lat": 19.3222,
    "lon": -81.2409,
    "address": "31119 Grand Pavilion, Hibiscus Way, 802 West Bay Road, Grand Cayman, KY1-1205 Cayman Islands"
  },
  "zb ": {
    "location": "Switzerland",
    "lat": 47.3769,
    "lon": 8.5417,
    "address": "Zürich, Switzerland 8004, CH"
  },
  "developer support (hot)": {
    "location": null,
    "lat": null,
    "lon": null,
    "address": null
  },
  "bitgo": {
    "location": "San Francisco, CA",
    "lat": 37.7749,
    "lon": -122.4194,
    "address": "548 Market Street Suite 94104 San Francisco, CA 94104 United States"
  },
  "sdf direct development (hot 2)": {
    "location": null,
    "lat": null,
    "lon": null,
    "address": null
  },
  "sdf direct development": {
    "location": null,
    "lat": null,
    "lon": null,
    "address": null
  },
  "bat ugp reserve": {
    "location": "San Francisco, CA",
    "lat": 37.7749,
    "lon": -122.4194,
    "address": "512 2nd St. San Francisco, CA, United States"
  },
  "zaif": {
    "location": "Osaka, JP",
    "lat": 34.6937,
    "lon": 135.5023,
    "address": "Orix Honmachi Building 4F, 1-4-1 Nishihonmachi Nishi-ku, Osaka-shi, Osaka, Japan"
  },
  "diversifi": {
    "location": "British Virgin Islands",
    "lat": 18.4207,
    "lon": -64.64,
    "address": null
  },
  "atlant": {
    "location": "London, UK",
    "lat": 51.5074,
    "lon": -0.1278,
    "address": null
  },
  "mercadobitcoin.net": {
    "location": "São Paulo, BR",
    "lat": -23.5505,
    "lon": -46.6333,
    "address": null
  },
  "give directly charity": {
    "location": null,
    "lat": null,
    "lon": null,
    "address": null
  },
  "bitx": {
    "location": "Connecticut, US",
    "lat": 41.6032,
    "lon": -73.0877,
    "address": "1700 Post Road, Suite B-10. Fairfield, CT 06824"
  },
  "discusfish/f2pool/mtgox/freebitco.in": {
    "location": null,
    "lat": null,
    "lon": null,
    "address": null
  },
  "bitmex": {
    "location": "Hong Kong",
    "lat": 22.3193,
    "lon": 114.1694,
    "address": "Eden Island, Mahe, Hong Kong"
  },
  "coinhako.com": {
    "location": "Singapore",
    "lat": 1.3521,
    "lon": 103.8198,
    "address": "14 Robinson Road, Singapore, SG"
  },
  "tron foundation 344": {
    "location": "San Francisco, CA",
    "lat": 37.7749,
    "lon": -122.4194,
    "address": null
  },
  "tron foundation 889": {
    "location": "San Francisco, CA",
    "lat": 37.7749,
    "lon": -122.4194,
    "address": null
  },
  "tron foundation 629": {
    "location": "San Francisco, CA",
    "lat": 37.7749,
    "lon": -122.4194,
    "address": null
  },
  "tron foundation 560": {
    "location": "San Francisco, CA",
    "lat": 37.7749,
    "lon": -122.4194,
    "address": null
  },
  "tron foundation 101": {
    "location": "San Francisco, CA",
    "lat": 37.7749,
    "lon": -122.4194,
    "address": null
  },
  "tron foundation 261": {
    "location": "San Francisco, CA",
    "lat": 37.7749,
    "lon": -122.4194,
    "address": null
  },
  "tron foundation 302": {
    "location": "San Francisco, CA",
    "lat": 37.7749,
    "lon": -122.4194,
    "address": null
  },
  "tron foundation 664": {
    "location": "San Francisco, CA",
    "lat": 37.7749,
    "lon": -122.4194,
    "address": null
  },
  "tron foundation 525": {
    "location": "San Francisco, CA",
    "lat": 37.7749,
    "lon": -122.4194,
    "address": null
  },
  "tron foundation 573": {
    "location": "San Francisco, CA",
    "lat": 37.7749,
    "lon": -122.4194,
    "address": null
  },
  "tron foundation 243": {
    "location": "San Francisco, CA",
    "lat": 37.7749,
    "lon": -122.4194,
    "address": null
  },
  "tron foundation 5": {
    "location": "San Francisco, CA",
    "lat": 37.7749,
    "lon": -122.4194,
    "address": null
  },
  "tron foundation 505": {
    "location": "San Francisco, CA",
    "lat": 37.7749,
    "lon": -122.4194,
    "address": null
  },
  "tron foundation 934": {
    "location": "San Francisco, CA",
    "lat": 37.7749,
    "lon": -122.4194,
    "address": null
  },
  "tron foundation 363": {
    "location": "San Francisco, CA",
    "lat": 37.7749,
    "lon": -122.4194,
    "address": null
  },
  "tron foundation 806": {
    "location": "San Francisco, CA",
    "lat": 37.7749,
    "lon": -122.4194,
    "address": null
  },
  "tron foundation 980": {
    "location": "San Francisco, CA",
    "lat": 37.7749,
    "lon": -122.4194,
    "address": null
  },
  "tron foundation 891": {
    "location": "San Francisco, CA",
    "lat": 37.7749,
    "lon": -122.4194,
    "address": null
  },
  "tron foundation 296": {
    "location": "San Francisco, CA",
    "lat": 37.7749,
    "lon": -122.4194,
    "address": null
  },
  "tron foundation 503": {
    "location": "San Francisco, CA",
    "lat": 37.7749,
    "lon": -122.4194,
    "address": null
  },
  "tron foundation 454": {
    "location": "San Francisco, CA",
    "lat": 37.7749,
    "lon": -122.4194,
    "address": null
  },
  "tron foundation 345": {
    "location": "San Francisco, CA",
    "lat": 37.7749,
    "lon": -122.4194,
    "address": null
  },
  "tron foundation 744": {
    "location": "San Francisco, CA",
    "lat": 37.7749,
    "lon": -122.4194,
    "address": null
  },
  "tron foundation 325": {
    "location": "San Francisco, CA",
    "lat": 37.7749,
    "lon": -122.4194,
    "address": null
  },
  "tron foundation 338": {
    "location": "San Francisco, CA",
    "lat": 37.7749,
    "lon": -122.4194,
    "address": null
  },
  "tron foundation 251": {
    "location": "San Francisco, CA",
    "lat": 37.7749,
    "lon": -122.4194,
    "address": null
  },
  "tron foundation 175": {
    "location": "San Francisco, CA",
    "lat": 37.7749,
    "lon": -122.4194,
    "address": null
  },
  "tron foundation 674": {
    "location": "San Francisco, CA",
    "lat": 37.7749,
    "lon": -122.4194,
    "address": null
  },
  "tron foundation 405": {
    "location": "San Francisco, CA",
    "lat": 37.7749,
    "lon": -122.4194,
    "address": null
  },
  "tron foundation 955": {
    "location": "San Francisco, CA",
    "lat": 37.7749,
    "lon": -122.4194,
    "address": null
  },
  "tron foundation 219": {
    "location": "San Francisco, CA",
    "lat": 37.7749,
    "lon": -122.4194,
    "address": null
  },
  "tron foundation 747": {
    "location": "San Francisco, CA",
    "lat": 37.7749,
    "lon": -122.4194,
    "address": null
  },
  "tron foundation 129": {
    "location": "San Francisco, CA",
    "lat": 37.7749,
    "lon": -122.4194,
    "address": null
  },
  "tron foundation 38": {
    "location": "San Francisco, CA",
    "lat": 37.7749,
    "lon": -122.4194,
    "address": null
  },
  "tron foundation 973": {
    "location": "San Francisco, CA",
    "lat": 37.7749,
    "lon": -122.4194,
    "address": null
  },
  "tron foundation 970": {
    "location": "San Francisco, CA",
    "lat": 37.7749,
    "lon": -122.4194,
    "address": null
  },
  "tron foundation 114": {
    "location": "San Francisco, CA",
    "lat": 37.7749,
    "lon": -122.4194,
    "address": null
  },
  "tron foundation 72": {
    "location": "San Francisco, CA",
    "lat": 37.7749,
    "lon": -122.4194,
    "address": null
  },
  "tron foundation 11": {
    "location": "San Francisco, CA",
    "lat": 37.7749,
    "lon": -122.4194,
    "address": null
  },
  "tron foundation 951": {
    "location": "San Francisco, CA",
    "lat": 37.7749,
    "lon": -122.4194,
    "address": null
  },
  "tron foundation 726": {
    "location": "San Francisco, CA",
    "lat": 37.7749,
    "lon": -122.4194,
    "address": null
  },
  "tron foundation 851": {
    "location": "San Francisco, CA",
    "lat": 37.7749,
    "lon": -122.4194,
    "address": null
  },
  "tron foundation 808": {
    "location": "San Francisco, CA",
    "lat": 37.7749,
    "lon": -122.4194,
    "address": null
  },
  "tron foundation 365": {
    "location": "San Francisco, CA",
    "lat": 37.7749,
    "lon": -122.4194,
    "address": null
  },
  "tron foundation 561": {
    "location": "San Francisco, CA",
    "lat": 37.7749,
    "lon": -122.4194,
    "address": null
  },
  "tron foundation 465": {
    "location": "San Francisco, CA",
    "lat": 37.7749,
    "lon": -122.4194,
    "address": null
  },
  "tron foundation 107": {
    "location": "San Francisco, CA",
    "lat": 37.7749,
    "lon": -122.4194,
    "address": null
  },
  "tron foundation 984": {
    "location": "San Francisco, CA",
    "lat": 37.7749,
    "lon": -122.4194,
    "address": null
  },
  "tron foundation 865": {
    "location": "San Francisco, CA",
    "lat": 37.7749,
    "lon": -122.4194,
    "address": null
  },
  "tron foundation 370": {
    "location": "San Francisco, CA",
    "lat": 37.7749,
    "lon": -122.4194,
    "address": null
  },
  "tron foundation 682": {
    "location": "San Francisco, CA",
    "lat": 37.7749,
    "lon": -122.4194,
    "address": null
  },
  "tron foundation 100": {
    "location": "San Francisco, CA",
    "lat": 37.7749,
    "lon": -122.4194,
    "address": null
  },
  "tron foundation 559": {
    "location": "San Francisco, CA",
    "lat": 37.7749,
    "lon": -122.4194,
    "address": null
  },
  "tron foundation 468": {
    "location": "San Francisco, CA",
    "lat": 37.7749,
    "lon": -122.4194,
    "address": null
  },
  "tron foundation 745": {
    "location": "San Francisco, CA",
    "lat": 37.7749,
    "lon": -122.4194,
    "address": null
  },
  "tron foundation 816": {
    "location": "San Francisco, CA",
    "lat": 37.7749,
    "lon": -122.4194,
    "address": null
  },
  "tron foundation 368": {
    "location": "San Francisco, CA",
    "lat": 37.7749,
    "lon": -122.4194,
    "address": null
  },
  "tron foundation 537": {
    "location": "San Francisco, CA",
    "lat": 37.7749,
    "lon": -122.4194,
    "address": null
  },
  "tron foundation 770": {
    "location": "San Francisco, CA",
    "lat": 37.7749,
    "lon": -122.4194,
    "address": null
  },
  "tron foundation 59": {
    "location": "San Francisco, CA",
    "lat": 37.7749,
    "lon": -122.4194,
    "address": null
  },
  "tron foundation 690": {
    "location": "San Francisco, CA",
    "lat": 37.7749,
    "lon": -122.4194,
    "address": null
  },
  "tron foundation 762": {
    "location": "San Francisco, CA",
    "lat": 37.7749,
    "lon": -122.4194,
    "address": null
  },
  "tron foundation 921": {
    "location": "San Francisco, CA",
    "lat": 37.7749,
    "lon": -122.4194,
    "address": null
  },
  "tron foundation 303": {
    "location": "San Francisco, CA",
    "lat": 37.7749,
    "lon": -122.4194,
    "address": null
  },
  "tron foundation 230": {
    "location": "San Francisco, CA",
    "lat": 37.7749,
    "lon": -122.4194,
    "address": null
  },
  "tron foundation 441": {
    "location": "San Francisco, CA",
    "lat": 37.7749,
    "lon": -122.4194,
    "address": null
  },
  "tron foundation 315": {
    "location": "San Francisco, CA",
    "lat": 37.7749,
    "lon": -122.4194,
    "address": null
  },
  "tron foundation 846": {
    "location": "San Francisco, CA",
    "lat": 37.7749,
    "lon": -122.4194,
    "address": null
  },
  "crypto.com": {
    "location": "Hong Kong",
    "lat": 22.3193,
    "lon": 114.1694,
    "address": "418 Des Voeux Rd W, Sai Wan, Hong Kong"
  },
  "funding wallet 1": {
    "location": null,
    "lat": null,
    "lon": null,
    "address": null
  },
  "coinspot": {
    "location": "Berwick, Victoria, AU",
    "lat": -38.0309,
    "lon": 145.3437,
    "address": null
  },
  "jed mccaleb settlement": {
    "location": "San Francisco, CA",
    "lat": 37.7749,
    "lon": -122.4194,
    "address": "315 Montgomery St, San Francisco, CA, United States"
  },
  "cobra1104 wallet": {
    "location": "San Francisco, CA",
    "lat": 37.7749,
    "lon": -122.4194,
    "address": "315 Montgomery St, San Francisco, CA, United States"
  },
  "chris larsen": {
    "location": "San Francisco, CA",
    "lat": 37.7749,
    "lon": -122.4194,
    "address": "315 Montgomery St, San Francisco, CA, United States"
  },
  "sdf ecosystem support - infrastructure grants": {
    "location": null,
    "lat": null,
    "lon": null,
    "address": null
  },
  "sdf operations": {
    "location": null,
    "lat": null,
    "lon": null,
    "address": null
  },
  "unknown": {
    "location": "Unknown",
    "lat": -82.8628,
    "lon": 135.0000,
    "address": null
  }
}